[{"name": "SF Eagle", "lat": 37.770026, "lon": -122.41331}, {"name": "The Crafty Fox Ale House", "lat": 37.769817, "lon": -122.420489}, {"name": "Anina", "lat": 37.776933, "lon": -122.424422}, {"name": "Abv", "lat": 37.764986, "lon": -122.423429}, {"name": "Martuni's", "lat": 37.772125, "lon": -122.422776}, {"name": "Smuggler's Cove", "lat": 37.779502, "lon": -122.423284}, {"name": "Fool\u2019s Errand", "lat": 37.775613, "lon": -122.438248}, {"name": "Oasis", "lat": 37.771885, "lon": -122.414376}, {"name": "Peacekeeper", "lat": 37.789443, "lon": -122.412473}, {"name": "Toronado", "lat": 37.771807, "lon": -122.431214}, {"name": "True Laurel", "lat": 37.759466, "lon": -122.411421}, {"name": "Bar Part Time", "lat": 37.768178, "lon": -122.423976}, {"name": "Blackbird Bar", "lat": 37.767352, "lon": -122.429661}, {"name": "Last Rites", "lat": 37.767894, "lon": -122.429406}, {"name": "The Sycamore", "lat": 37.762852, "lon": -122.41972}, {"name": "Hi Tops", "lat": 37.764846, "lon": -122.431662}, {"name": "Buddy", "lat": 37.755442, "lon": -122.41706}, {"name": "Lost Resort", "lat": 37.759516, "lon": -122.408629}, {"name": "Trick Dog", "lat": 37.759347, "lon": -122.411271}, {"name": "Wildhawk", "lat": 37.760281, "lon": -122.420858}, {"name": "Horsefeather", "lat": 37.774497, "lon": -122.437465}, {"name": "Millay", "lat": 37.767557, "lon": -122.428248}, {"name": "Driftwood", "lat": 37.774478, "lon": -122.410372}, {"name": "Local Edition", "lat": 37.787577, "lon": -122.403115}, {"name": "Last Call Bar", "lat": 37.761219, "lon": -122.432523}, {"name": "Bender's Bar and Grill", "lat": 37.760164, "lon": -122.417267}, {"name": "Casements", "lat": 37.759263, "lon": -122.418791}, {"name": "The Interval at Long Now", "lat": 37.806645, "lon": -122.431844}, {"name": "Ungrafted", "lat": 37.758989, "lon": -122.388099}, {"name": "Lone Palm", "lat": 37.75532, "lon": -122.422929}]