[{"name": "Shizen", "lat": 37.768028, "lon": -122.421674}, {"name": "Gracias Madre", "lat": 37.761556, "lon": -122.419141}, {"name": "Cha-Ya", "lat": 37.760774, "lon": -122.421675}, {"name": "Greens Restaurant", "lat": 37.773837, "lon": -122.426031}, {"name": "VeganBurg", "lat": 37.77022, "lon": -122.446385}, {"name": "Judahlicious", "lat": 37.760656, "lon": -122.504063}, {"name": "Thai Idea Vegetarian Restaurant", "lat": 37.783353, "lon": -122.419067}, {"name": "Udupi Palace", "lat": 37.756655, "lon": -122.420858}, {"name": "Mensho Tokyo", "lat": 37.786781, "lon": -122.414395}, {"name": "Rainbow Grocery", "lat": 37.769142, "lon": -122.415217}, {"name": "Rosamunde Sausage Grill", "lat": 37.751554, "lon": -122.418766}, {"name": "SOMA StrEat Food Park", "lat": 37.769745, "lon": -122.412028}, {"name": "Holy Gelato", "lat": 37.762352, "lon": -122.465909}, {"name": "New Eritrea Restaurant & Bar", "lat": 37.763716, "lon": -122.46771}, {"name": "Enjoy Vegetarian Restaurant", "lat": 37.795836, "lon": -122.405323}, {"name": "Golden Era Vegan Restaurant", "lat": 37.781213, "lon": -122.416719}, {"name": "Wildseed", "lat": 37.797611, "lon": -122.432527}, {"name": "Sweetgreen", "lat": 37.789748, "lon": -122.391772}, {"name": "Baia", "lat": 37.778208, "lon": -122.421845}, {"name": "Enjoy Vegetarian Restaurant", "lat": 37.760355, "lon": -122.468942}, {"name": "Chisme Cantina", "lat": 37.78858, "lon": -122.414788}, {"name": "Rad Radish", "lat": 37.776891, "lon": -122.421553}, {"name": "The Lucky Creation Vegetarian Restaurant", "lat": 37.795217, "lon": -122.407437}, {"name": "Nourish Cafe", "lat": 37.790498, "lon": -122.417052}, {"name": "Mixt", "lat": 37.7584, "lon": -122.421105}, {"name": "Chisai Sushi Club", "lat": 37.742612, "lon": -122.421605}, {"name": "Nourish Cafe", "lat": 37.785208, "lon": -122.464761}, {"name": "Indochine Vegan", "lat": 37.764656, "lon": -122.422191}, {"name": "Other Avenues Food Store", "lat": 37.760699, "lon": -122.504352}, {"name": "Greens To Go", "lat": 37.806558, "lon": -122.432125}]